[
  {
    "abbrev": "ATL",
    "homeName": "Atlanta",
    "id": 1610612737,
    "nickname": "Hawks",
    "venue": "State Farm Arena",
    "venueCapacity": 18729,
    "yearFounded": "1949-01-01T00:00:00.000Z",
    "facebook": "https://www.facebook.com/hawks",
    "instagram": "https://instagram.com/atlhawks",
    "twitter": "https://twitter.com/ATLHawks",
    "lat": 33.75729,
    "lng": -84.397331
  },
  {
    "abbrev": "BOS",
    "homeName": "Boston",
    "id": 1610612738,
    "nickname": "Celtics",
    "venue": "TD Garden",
    "venueCapacity": 18624,
    "yearFounded": "1946-01-01T00:00:00.000Z",
    "facebook": "https://www.facebook.com/bostonceltics",
    "instagram": "https://instagram.com/celtics",
    "twitter": "https://twitter.com/celtics",
    "lat": 42.366291,
    "lng": -71.06263
  },
  {
    "abbrev": "CLE",
    "homeName": "Cleveland",
    "id": 1610612739,
    "nickname": "Cavaliers",
    "venue": "Rocket Mortgage FieldHouse",
    "venueCapacity": 20562,
    "yearFounded": "1970-01-01T00:00:00.000Z",
    "facebook": "https://www.facebook.com/Cavs",
    "instagram": "https://instagram.com/cavs",
    "twitter": "https://twitter.com/cavs",
    "lat": 41.49662,
    "lng": -81.688431
  },
  {
    "abbrev": "NOP",
    "homeName": "New Orleans",
    "id": 1610612740,
    "nickname": "Pelicans",
    "venue": "Smoothie King Center",
    "venueCapacity": 0,
    "yearFounded": "2002-01-01T00:00:00.000Z",
    "facebook": "https://www.facebook.com/PelicansNBA",
    "instagram": "https://instagram.com/pelicansnba",
    "twitter": "https://twitter.com/PelicansNBA",
    "lat": 29.949035,
    "lng": -90.082057
  },
  {
    "abbrev": "CHI",
    "homeName": "Chicago",
    "id": 1610612741,
    "nickname": "Bulls",
    "venue": "United Center",
    "venueCapacity": 21711,
    "yearFounded": "1966-01-01T00:00:00.000Z",
    "facebook": "https://www.facebook.com/chicagobulls",
    "instagram": "https://instagram.com/chicagobulls",
    "twitter": "https://twitter.com/chicagobulls",
    "lat": 41.880692,
    "lng": -87.67437
  },
  {
    "abbrev": "DAL",
    "homeName": "Dallas",
    "id": 1610612742,
    "nickname": "Mavericks",
    "venue": "American Airlines Center",
    "venueCapacity": 19200,
    "yearFounded": "1980-01-01T00:00:00.000Z",
    "facebook": "https://www.facebook.com/dallasmavs",
    "instagram": "https://instagram.com/dallasmavs",
    "twitter": "https://twitter.com/dallasmavs",
    "lat": 32.790527,
    "lng": -96.810883
  },
  {
    "abbrev": "DEN",
    "homeName": "Denver",
    "id": 1610612743,
    "nickname": "Nuggets",
    "venue": "Ball Arena",
    "venueCapacity": 0,
    "yearFounded": "1976-01-01T00:00:00.000Z",
    "facebook": "https://www.facebook.com/DenverNuggets",
    "instagram": "https://instagram.com/nuggets",
    "twitter": "https://twitter.com/nuggets",
    "lat": 39.74892,
    "lng": -105.0084
  },
  {
    "abbrev": "GSW",
    "homeName": "Golden State",
    "id": 1610612744,
    "nickname": "Warriors",
    "venue": "Chase Center",
    "venueCapacity": 0,
    "yearFounded": "1946-01-01T00:00:00.000Z",
    "facebook": "https://www.facebook.com/warriors",
    "instagram": "https://instagram.com/warriors",
    "twitter": "https://twitter.com/warriors",
    "lat": 37.768009,
    "lng": -122.387787
  },
  {
    "abbrev": "HOU",
    "homeName": "Houston",
    "id": 1610612745,
    "nickname": "Rockets",
    "venue": "Toyota Center",
    "venueCapacity": 18104,
    "yearFounded": "1967-01-01T00:00:00.000Z",
    "facebook": "https://www.facebook.com/houstonrockets",
    "instagram": "https://instagram.com/houstonrockets",
    "twitter": "https://twitter.com/HoustonRockets",
    "lat": 29.7524505,
    "lng": -95.3618826
  },
  {
    "abbrev": "LAC",
    "homeName": "Los Angeles",
    "id": 1610612746,
    "nickname": "Clippers",
    "venue": "Crypto.com Arena",
    "venueCapacity": 19060,
    "yearFounded": "1970-01-01T00:00:00.000Z",
    "facebook": "https://www.facebook.com/LAClippers",
    "instagram": "https://instagram.com/laclippers",
    "twitter": "https://twitter.com/LAClippers",
    "lat": 34.043087,
    "lng": -118.267616
  },
  {
    "abbrev": "LAL",
    "homeName": "Los Angeles",
    "id": 1610612747,
    "nickname": "Lakers",
    "venue": "Crypto.com Arena",
    "venueCapacity": 19060,
    "yearFounded": "1948-01-01T00:00:00.000Z",
    "facebook": "https://www.facebook.com/losangeleslakers",
    "instagram": "https://instagram.com/lakers",
    "twitter": "https://twitter.com/Lakers",
    "lat": 34.043087,
    "lng": -118.267616
  },
  {
    "abbrev": "MIA",
    "homeName": "Miami",
    "id": 1610612748,
    "nickname": "Heat",
    "venue": "FTX Arena",
    "venueCapacity": 19600,
    "yearFounded": "1988-01-01T00:00:00.000Z",
    "facebook": "https://www.facebook.com/MiamiHeat",
    "instagram": "https://instagram.com/miamiheat",
    "twitter": "https://twitter.com/MiamiHEAT",
    "lat": 25.781441,
    "lng": -80.188332
  },
  {
    "abbrev": "MIL",
    "homeName": "Milwaukee",
    "id": 1610612749,
    "nickname": "Bucks",
    "venue": "Fiserv Forum",
    "venueCapacity": 17500,
    "yearFounded": "1968-01-01T00:00:00.000Z",
    "facebook": "https://www.facebook.com/milwaukeebucks",
    "instagram": "https://instagram.com/bucks",
    "twitter": "https://twitter.com/Bucks",
    "lat": 43.045231,
    "lng": -87.917923
  },
  {
    "abbrev": "MIN",
    "homeName": "Minnesota",
    "id": 1610612750,
    "nickname": "Timberwolves",
    "venue": "Target Center",
    "venueCapacity": 19356,
    "yearFounded": "1989-01-01T00:00:00.000Z",
    "facebook": "https://www.facebook.com/MNTimberwolves",
    "instagram": "https://instagram.com/timberwolves",
    "twitter": "https://twitter.com/Timberwolves",
    "lat": 44.979528,
    "lng": -93.275989
  },
  {
    "abbrev": "BKN",
    "homeName": "Brooklyn",
    "id": 1610612751,
    "nickname": "Nets",
    "venue": "Barclays Center",
    "venueCapacity": 0,
    "yearFounded": "1976-01-01T00:00:00.000Z",
    "facebook": "https://www.facebook.com/BrooklynNets",
    "instagram": "https://instagram.com/brooklynnets",
    "twitter": "https://twitter.com/BrooklynNets",
    "lat": 40.682732,
    "lng": -73.975876
  },
  {
    "abbrev": "NYK",
    "homeName": "New York",
    "id": 1610612752,
    "nickname": "Knicks",
    "venue": "Madison Square Garden",
    "venueCapacity": 19763,
    "yearFounded": "1946-01-01T00:00:00.000Z",
    "facebook": "https://www.facebook.com/NYKnicks",
    "instagram": "https://instagram.com/nyknicks",
    "twitter": "https://twitter.com/nyknicks",
    "lat": 40.750298,
    "lng": -73.993324
  },
  {
    "abbrev": "ORL",
    "homeName": "Orlando",
    "id": 1610612753,
    "nickname": "Magic",
    "venue": "Amway Center",
    "venueCapacity": 0,
    "yearFounded": "1989-01-01T00:00:00.000Z",
    "facebook": "https://www.facebook.com/OrlandoMagic",
    "instagram": "https://instagram.com/orlandomagic",
    "twitter": "https://twitter.com/OrlandoMagic",
    "lat": 28.538336,
    "lng": -81.379236
  },
  {
    "abbrev": "IND",
    "homeName": "Indiana",
    "id": 1610612754,
    "nickname": "Pacers",
    "venue": "Gainbridge Fieldhouse ",
    "venueCapacity": 18345,
    "yearFounded": "1976-01-01T00:00:00.000Z",
    "facebook": "https://www.facebook.com/pacers",
    "instagram": "https://instagram.com/pacers",
    "twitter": "https://twitter.com/Pacers",
    "lat": 39.763924,
    "lng": -86.155807
  },
  {
    "abbrev": "PHI",
    "homeName": "Philadelphia",
    "id": 1610612755,
    "nickname": "76ers",
    "venue": "Wells Fargo Center",
    "venueCapacity": 0,
    "yearFounded": "1949-01-01T00:00:00.000Z",
    "facebook": "https://www.facebook.com/Sixers",
    "instagram": "https://instagram.com/sixers",
    "twitter": "https://twitter.com/Sixers",
    "lat": 39.901333,
    "lng": -75.172592
  },
  {
    "abbrev": "PHX",
    "homeName": "Phoenix",
    "id": 1610612756,
    "nickname": "Suns",
    "venue": "Footprint Center",
    "venueCapacity": 0,
    "yearFounded": "1968-01-01T00:00:00.000Z",
    "facebook": "https://www.facebook.com/suns",
    "instagram": "https://instagram.com/suns",
    "twitter": "https://twitter.com/Suns",
    "lat": 33.445938,
    "lng": -112.071487
  },
  {
    "abbrev": "POR",
    "homeName": "Portland",
    "id": 1610612757,
    "nickname": "Trail Blazers",
    "venue": "Moda Center",
    "venueCapacity": 19980,
    "yearFounded": "1970-01-01T00:00:00.000Z",
    "facebook": "https://www.facebook.com/trailblazers",
    "instagram": "https://instagram.com/trailblazers",
    "twitter": "https://twitter.com/trailblazers",
    "lat": 45.531609,
    "lng": -122.667236
  },
  {
    "abbrev": "SAC",
    "homeName": "Sacramento",
    "id": 1610612758,
    "nickname": "Kings",
    "venue": "Golden 1 Center",
    "venueCapacity": 17500,
    "yearFounded": "1948-01-01T00:00:00.000Z",
    "facebook": "https://www.facebook.com/sacramentokings",
    "instagram": "https://instagram.com/sacramentokings",
    "twitter": "https://twitter.com/SacramentoKings",
    "lat": 38.580368028215126,
    "lng": -121.49930615053546
  },
  {
    "abbrev": "SAS",
    "homeName": "San Antonio",
    "id": 1610612759,
    "nickname": "Spurs",
    "venue": "AT&T Center",
    "venueCapacity": 18694,
    "yearFounded": "1976-01-01T00:00:00.000Z",
    "facebook": "https://www.facebook.com/Spurs",
    "instagram": "https://instagram.com/spurs",
    "twitter": "https://twitter.com/spurs",
    "lat": 29.426931,
    "lng": -98.437599
  },
  {
    "abbrev": "OKC",
    "homeName": "Oklahoma City",
    "id": 1610612760,
    "nickname": "Thunder",
    "venue": "Paycom Center",
    "venueCapacity": 0,
    "yearFounded": "1967-01-01T00:00:00.000Z",
    "facebook": "https://www.facebook.com/OKCThunder",
    "instagram": "https://instagram.com/okcthunder",
    "twitter": "https://twitter.com/okcthunder",
    "lat": 35.463608,
    "lng": -97.51564
  },
  {
    "abbrev": "TOR",
    "homeName": "Toronto",
    "id": 1610612761,
    "nickname": "Raptors",
    "venue": "Scotiabank Arena",
    "venueCapacity": 0,
    "yearFounded": "1995-01-01T00:00:00.000Z",
    "facebook": "https://www.facebook.com/TorontoRaptors",
    "instagram": "https://instagram.com/raptors",
    "twitter": "https://twitter.com/Raptors",
    "lat": 43.643475,
    "lng": -79.379379
  },
  {
    "abbrev": "UTA",
    "homeName": "Utah",
    "id": 1610612762,
    "nickname": "Jazz",
    "venue": "Vivint Arena",
    "venueCapacity": 0,
    "yearFounded": "1974-01-01T00:00:00.000Z",
    "facebook": "https://www.facebook.com/utahjazz",
    "instagram": "https://instagram.com/utahjazz",
    "twitter": "https://twitter.com/utahjazz",
    "lat": 40.76890189042454,
    "lng": -111.89962827830881
  },
  {
    "abbrev": "MEM",
    "homeName": "Memphis",
    "id": 1610612763,
    "nickname": "Grizzlies",
    "venue": "FedExForum",
    "venueCapacity": 18119,
    "yearFounded": "1995-01-01T00:00:00.000Z",
    "facebook": "https://www.facebook.com/MemphisGrizzlies",
    "instagram": "https://instagram.com/memgrizz",
    "twitter": "https://twitter.com/memgrizz",
    "lat": 35.138351,
    "lng": -90.051025
  },
  {
    "abbrev": "WAS",
    "homeName": "Washington",
    "id": 1610612764,
    "nickname": "Wizards",
    "venue": "Capital One Arena",
    "venueCapacity": 20647,
    "yearFounded": "1961-01-01T00:00:00.000Z",
    "facebook": "https://www.facebook.com/Wizards",
    "instagram": "https://instagram.com/washwizards",
    "twitter": "https://twitter.com/WashWizards",
    "lat": 38.898129,
    "lng": -77.021172
  },
  {
    "abbrev": "DET",
    "homeName": "Detroit",
    "id": 1610612765,
    "nickname": "Pistons",
    "venue": "Little Caesars Arena",
    "venueCapacity": 0,
    "yearFounded": "1948-01-01T00:00:00.000Z",
    "facebook": "https://www.facebook.com/detroitpistons",
    "instagram": "https://instagram.com/detroitpistons",
    "twitter": "https://twitter.com/DetroitPistons",
    "lat": 42.34172115245251,
    "lng": -83.0547523158737
  },
  {
    "abbrev": "CHA",
    "homeName": "Charlotte",
    "id": 1610612766,
    "nickname": "Hornets",
    "venue": "Spectrum Center",
    "venueCapacity": 19026,
    "yearFounded": "1988-01-01T00:00:00.000Z",
    "facebook": "https://www.facebook.com/hornets",
    "instagram": "https://instagram.com/hornets",
    "twitter": "https://twitter.com/hornets",
    "lat": 35.22587056923433,
    "lng": -80.83745990952639
  }
]
